{
"type": "FeatureCollection",
"name": "xz_84_points",
"features": [
{ "type": "Feature", "properties": { "OBJECTID_1": 1, "OBJECTID": 1, "NAME": "盐官镇", "CITY": "嘉兴市", "COUNTY": "海宁市", "Shape_Leng": 0.49362613709800002, "Shape_Area": 0.0062023003594500001, "InPoly_FID": 0, "SimPgnFlag": 1, "MaxSimpTol": 0.00053959322764499996, "MinSimpTol": 0.00053959322764499996, "Area": 0.565748 }, "geometry": { "type": "Point", "coordinates": [ 120.566022717940854, 30.432166304340274 ] } },
{ "type": "Feature", "properties": { "OBJECTID_1": 2, "OBJECTID": 2, "NAME": "长安镇", "CITY": "嘉兴市", "COUNTY": "海宁市", "Shape_Leng": 0.69061616996700004, "Shape_Area": 0.0097542980323999991, "InPoly_FID": 1, "SimPgnFlag": 1, "MaxSimpTol": 0.00053959322764499996, "MinSimpTol": 0.00053959322764499996, "Area": 0.481969 }, "geometry": { "type": "Point", "coordinates": [ 120.431186882826879, 30.420541829799422 ] } },
{ "type": "Feature", "properties": { "OBJECTID_1": 3, "OBJECTID": 3, "NAME": "袁花镇", "CITY": "嘉兴市", "COUNTY": "海宁市", "Shape_Leng": 0.69625496560699995, "Shape_Area": 0.0072850997025700002, "InPoly_FID": 2, "SimPgnFlag": 1, "MaxSimpTol": 0.00053959322764499996, "MinSimpTol": 0.00053959322764499996, "Area": 0.0 }, "geometry": { "type": "Point", "coordinates": [ 120.76787645380918, 30.437641594340864 ] } },
{ "type": "Feature", "properties": { "OBJECTID_1": 4, "OBJECTID": 4, "NAME": "秦山街道", "CITY": "嘉兴市", "COUNTY": "海盐县", "Shape_Leng": 0.50587766895700004, "Shape_Area": 0.004684264256, "InPoly_FID": 3, "SimPgnFlag": 1, "MaxSimpTol": 0.00053959322764499996, "MinSimpTol": 0.00053959322764499996, "Area": 0.0 }, "geometry": { "type": "Point", "coordinates": [ 120.909721164132662, 30.451793398014676 ] } },
{ "type": "Feature", "properties": { "OBJECTID_1": 5, "OBJECTID": 5, "NAME": "天凝镇", "CITY": "嘉兴市", "COUNTY": "嘉善县", "Shape_Leng": 0.64610450181400003, "Shape_Area": 0.00714201348985, "InPoly_FID": 4, "SimPgnFlag": 1, "MaxSimpTol": 0.00053959322764499996, "MinSimpTol": 0.00053959322764499996, "Area": 0.0205983 }, "geometry": { "type": "Point", "coordinates": [ 120.817569143571362, 30.89122309054078 ] } },
{ "type": "Feature", "properties": { "OBJECTID_1": 6, "OBJECTID": 6, "NAME": "魏塘街道", "CITY": "嘉兴市", "COUNTY": "嘉善县", "Shape_Leng": 0.484685568746, "Shape_Area": 0.0054352699798799996, "InPoly_FID": 5, "SimPgnFlag": 1, "MaxSimpTol": 0.00053959322764499996, "MinSimpTol": 0.00053959322764499996, "Area": 0.0013936 }, "geometry": { "type": "Point", "coordinates": [ 120.914587292286029, 30.869782067304222 ] } },
{ "type": "Feature", "properties": { "OBJECTID_1": 7, "OBJECTID": 7, "NAME": "罗星街道", "CITY": "嘉兴市", "COUNTY": "嘉善县", "Shape_Leng": 0.33880899385300001, "Shape_Area": 0.0037446356166800001, "InPoly_FID": 6, "SimPgnFlag": 1, "MaxSimpTol": 0.00053959322764499996, "MinSimpTol": 0.00053959322764499996, "Area": 0.0 }, "geometry": { "type": "Point", "coordinates": [ 120.896825420671249, 30.812960591373571 ] } },
{ "type": "Feature", "properties": { "OBJECTID_1": 8, "OBJECTID": 8, "NAME": "当湖街道", "CITY": "嘉兴市", "COUNTY": "平湖市", "Shape_Leng": 0.46065401566399999, "Shape_Area": 0.0047191193489199996, "InPoly_FID": 7, "SimPgnFlag": 1, "MaxSimpTol": 0.00053959322764499996, "MinSimpTol": 0.00053959322764499996, "Area": 0.4454859 }, "geometry": { "type": "Point", "coordinates": [ 121.029356922383286, 30.681039154846054 ] } },
{ "type": "Feature", "properties": { "OBJECTID_1": 9, "OBJECTID": 9, "NAME": "钟埭街道", "CITY": "嘉兴市", "COUNTY": "平湖市", "Shape_Leng": 0.52823595520400002, "Shape_Area": 0.0058704865597699997, "InPoly_FID": 8, "SimPgnFlag": 1, "MaxSimpTol": 0.00053959322764499996, "MinSimpTol": 0.00053959322764499996, "Area": 1.3021699 }, "geometry": { "type": "Point", "coordinates": [ 121.008617406905159, 30.746177821681155 ] } },
{ "type": "Feature", "properties": { "OBJECTID_1": 10, "OBJECTID": 10, "NAME": "林埭镇", "CITY": "嘉兴市", "COUNTY": "平湖市", "Shape_Leng": 0.485581555301, "Shape_Area": 0.0043433477149299998, "InPoly_FID": 9, "SimPgnFlag": 1, "MaxSimpTol": 0.00053959322764499996, "MinSimpTol": 0.00053959322764499996, "Area": 1.6953202 }, "geometry": { "type": "Point", "coordinates": [ 121.088754142264037, 30.678623486455102 ] } },
{ "type": "Feature", "properties": { "OBJECTID_1": 11, "OBJECTID": 11, "NAME": "广陈镇", "CITY": "嘉兴市", "COUNTY": "平湖市", "Shape_Leng": 0.59257291694199998, "Shape_Area": 0.0052600372128500002, "InPoly_FID": 10, "SimPgnFlag": 1, "MaxSimpTol": 0.00053959322764499996, "MinSimpTol": 0.00053959322764499996, "Area": 2.8809921 }, "geometry": { "type": "Point", "coordinates": [ 121.11416840380916, 30.751745906005258 ] } },
{ "type": "Feature", "properties": { "OBJECTID_1": 12, "OBJECTID": 12, "NAME": "新埭镇", "CITY": "嘉兴市", "COUNTY": "平湖市", "Shape_Leng": 0.50371274157099999, "Shape_Area": 0.0071999095311300002, "InPoly_FID": 11, "SimPgnFlag": 1, "MaxSimpTol": 0.00053959322764499996, "MinSimpTol": 0.00053959322764499996, "Area": 2.3633441 }, "geometry": { "type": "Point", "coordinates": [ 121.080165957598169, 30.808626516461054 ] } },
{ "type": "Feature", "properties": { "OBJECTID_1": 13, "OBJECTID": 13, "NAME": "乍浦镇", "CITY": "嘉兴市", "COUNTY": "平湖市", "Shape_Leng": 0.51200910276300005, "Shape_Area": 0.0056814935237500001, "InPoly_FID": 12, "SimPgnFlag": 1, "MaxSimpTol": 0.00053959322764499996, "MinSimpTol": 0.00053959322764499996, "Area": 1.2265859 }, "geometry": { "type": "Point", "coordinates": [ 121.087446104366549, 30.618760231671224 ] } },
{ "type": "Feature", "properties": { "OBJECTID_1": 14, "OBJECTID": 14, "NAME": "陶庄镇", "CITY": "嘉兴市", "COUNTY": "嘉善县", "Shape_Leng": 0.37874115689600002, "Shape_Area": 0.0043587510249499997, "InPoly_FID": 13, "SimPgnFlag": 1, "MaxSimpTol": 0.00053959322764499996, "MinSimpTol": 0.00053959322764499996, "Area": 0.0 }, "geometry": { "type": "Point", "coordinates": [ 120.79570297593699, 30.976105873646794 ] } },
{ "type": "Feature", "properties": { "OBJECTID_1": 15, "OBJECTID": 15, "NAME": "西塘镇", "CITY": "嘉兴市", "COUNTY": "嘉善县", "Shape_Leng": 0.57410400951999996, "Shape_Area": 0.0078352126086400006, "InPoly_FID": 14, "SimPgnFlag": 1, "MaxSimpTol": 0.00053959322764499996, "MinSimpTol": 0.00053959322764499996, "Area": 0.0 }, "geometry": { "type": "Point", "coordinates": [ 120.877355221970234, 30.962348197530652 ] } },
{ "type": "Feature", "properties": { "OBJECTID_1": 16, "OBJECTID": 16, "NAME": "姚庄镇", "CITY": "嘉兴市", "COUNTY": "嘉善县", "Shape_Leng": 0.52397177528200001, "Shape_Area": 0.0070239897083700003, "InPoly_FID": 15, "SimPgnFlag": 1, "MaxSimpTol": 0.00053959322764499996, "MinSimpTol": 0.00053959322764499996, "Area": 0.0 }, "geometry": { "type": "Point", "coordinates": [ 120.960197688360083, 30.966917994256757 ] } },
{ "type": "Feature", "properties": { "OBJECTID_1": 17, "OBJECTID": 17, "NAME": "干窑镇", "CITY": "嘉兴市", "COUNTY": "嘉善县", "Shape_Leng": 0.42229480991000001, "Shape_Area": 0.0034822116807700001, "InPoly_FID": 16, "SimPgnFlag": 1, "MaxSimpTol": 0.00053959322764499996, "MinSimpTol": 0.00053959322764499996, "Area": 1.4227223 }, "geometry": { "type": "Point", "coordinates": [ 120.893571665661213, 30.903456229902236 ] } },
{ "type": "Feature", "properties": { "OBJECTID_1": 18, "OBJECTID": 18, "NAME": "惠民街道", "CITY": "嘉兴市", "COUNTY": "嘉善县", "Shape_Leng": 0.59463960810799998, "Shape_Area": 0.0061850974988099999, "InPoly_FID": 17, "SimPgnFlag": 1, "MaxSimpTol": 0.00053959322764499996, "MinSimpTol": 0.00053959322764499996, "Area": 0.0009515 }, "geometry": { "type": "Point", "coordinates": [ 120.984723878075513, 30.83842534374304 ] } },
{ "type": "Feature", "properties": { "OBJECTID_1": 19, "OBJECTID": 19, "NAME": "于城镇", "CITY": "嘉兴市", "COUNTY": "海盐县", "Shape_Leng": 0.42110651989100001, "Shape_Area": 0.0040300307430500004, "InPoly_FID": 18, "SimPgnFlag": 1, "MaxSimpTol": 0.00053959322764499996, "MinSimpTol": 0.00053959322764499996, "Area": 0.6382333 }, "geometry": { "type": "Point", "coordinates": [ 120.852650572625606, 30.533595653766771 ] } },
{ "type": "Feature", "properties": { "OBJECTID_1": 20, "OBJECTID": 20, "NAME": "沈荡镇", "CITY": "嘉兴市", "COUNTY": "海盐县", "Shape_Leng": 0.50607558641299999, "Shape_Area": 0.0062273298875800001, "InPoly_FID": 19, "SimPgnFlag": 1, "MaxSimpTol": 0.00053959322764499996, "MinSimpTol": 0.00053959322764499996, "Area": 1.4392803 }, "geometry": { "type": "Point", "coordinates": [ 120.833287309713825, 30.588517930917209 ] } },
{ "type": "Feature", "properties": { "OBJECTID_1": 21, "OBJECTID": 21, "NAME": "新丰镇", "CITY": "嘉兴市", "COUNTY": "南湖区", "Shape_Leng": 0.448195397326, "Shape_Area": 0.00594141406812, "InPoly_FID": 20, "SimPgnFlag": 1, "MaxSimpTol": 0.00053959322764499996, "MinSimpTol": 0.00053959322764499996, "Area": 1.916668 }, "geometry": { "type": "Point", "coordinates": [ 120.925872576823977, 30.696104647629273 ] } },
{ "type": "Feature", "properties": { "OBJECTID_1": 22, "OBJECTID": 22, "NAME": "通元镇", "CITY": "嘉兴市", "COUNTY": "海盐县", "Shape_Leng": 0.66694774399000001, "Shape_Area": 0.00648751057765, "InPoly_FID": 21, "SimPgnFlag": 1, "MaxSimpTol": 0.00053959322764499996, "MinSimpTol": 0.00053959322764499996, "Area": 0.0 }, "geometry": { "type": "Point", "coordinates": [ 120.829211151459205, 30.471451318411983 ] } },
{ "type": "Feature", "properties": { "OBJECTID_1": 23, "OBJECTID": 23, "NAME": "武原街道", "CITY": "嘉兴市", "COUNTY": "海盐县", "Shape_Leng": 0.56310763848500001, "Shape_Area": 0.0076765081579200003, "InPoly_FID": 22, "SimPgnFlag": 1, "MaxSimpTol": 0.00053959322764499996, "MinSimpTol": 0.00053959322764499996, "Area": 0.0 }, "geometry": { "type": "Point", "coordinates": [ 120.924701405895476, 30.532873003015972 ] } },
{ "type": "Feature", "properties": { "OBJECTID_1": 24, "OBJECTID": 24, "NAME": "元通街道", "CITY": "嘉兴市", "COUNTY": "海盐县", "Shape_Leng": 0.388525462471, "Shape_Area": 0.0032365464860099999, "InPoly_FID": 23, "SimPgnFlag": 1, "MaxSimpTol": 0.00053959322764499996, "MinSimpTol": 0.00053959322764499996, "Area": 1.1031398 }, "geometry": { "type": "Point", "coordinates": [ 120.929857637849921, 30.597035964238142 ] } },
{ "type": "Feature", "properties": { "OBJECTID_1": 25, "OBJECTID": 25, "NAME": "西塘桥街道", "CITY": "嘉兴市", "COUNTY": "海盐县", "Shape_Leng": 0.44699382598600002, "Shape_Area": 0.00510718747897, "InPoly_FID": 24, "SimPgnFlag": 1, "MaxSimpTol": 0.00053959322764499996, "MinSimpTol": 0.00053959322764499996, "Area": 0.1876269 }, "geometry": { "type": "Point", "coordinates": [ 121.000592024892399, 30.59771995330291 ] } },
{ "type": "Feature", "properties": { "OBJECTID_1": 26, "OBJECTID": 26, "NAME": "曹桥街道", "CITY": "嘉兴市", "COUNTY": "平湖市", "Shape_Leng": 0.38580046373900001, "Shape_Area": 0.0037645775193499999, "InPoly_FID": 25, "SimPgnFlag": 1, "MaxSimpTol": 0.00053959322764499996, "MinSimpTol": 0.00053959322764499996, "Area": 1.5371469 }, "geometry": { "type": "Point", "coordinates": [ 120.977543316555185, 30.663800563082425 ] } },
{ "type": "Feature", "properties": { "OBJECTID_1": 27, "OBJECTID": 27, "NAME": "周王庙镇", "CITY": "嘉兴市", "COUNTY": "海宁市", "Shape_Leng": 0.51724677718199996, "Shape_Area": 0.0059536025991599999, "InPoly_FID": 26, "SimPgnFlag": 1, "MaxSimpTol": 0.00053959322764499996, "MinSimpTol": 0.00053959322764499996, "Area": 0.124757 }, "geometry": { "type": "Point", "coordinates": [ 120.499354124270653, 30.43608609093129 ] } },
{ "type": "Feature", "properties": { "OBJECTID_1": 28, "OBJECTID": 28, "NAME": "丁桥镇", "CITY": "嘉兴市", "COUNTY": "海宁市", "Shape_Leng": 0.46315615563500001, "Shape_Area": 0.0078619126318399991, "InPoly_FID": 27, "SimPgnFlag": 1, "MaxSimpTol": 0.00053959322764499996, "MinSimpTol": 0.00053959322764499996, "Area": 1.720265 }, "geometry": { "type": "Point", "coordinates": [ 120.663303682018835, 30.41305191027044 ] } },
{ "type": "Feature", "properties": { "OBJECTID_1": 29, "OBJECTID": 29, "NAME": "马桥街道", "CITY": "嘉兴市", "COUNTY": "海宁市", "Shape_Leng": 0.38654335249100003, "Shape_Area": 0.0037196559668499999, "InPoly_FID": 28, "SimPgnFlag": 1, "MaxSimpTol": 0.00053959322764499996, "MinSimpTol": 0.00053959322764499996, "Area": 0.779655 }, "geometry": { "type": "Point", "coordinates": [ 120.701599564309745, 30.462949051792574 ] } },
{ "type": "Feature", "properties": { "OBJECTID_1": 30, "OBJECTID": 30, "NAME": "海洲街道", "CITY": "嘉兴市", "COUNTY": "海宁市", "Shape_Leng": 0.26451766272, "Shape_Area": 0.0022661861179499999, "InPoly_FID": 29, "SimPgnFlag": 1, "MaxSimpTol": 0.00053959322764499996, "MinSimpTol": 0.00053959322764499996, "Area": 0.095816 }, "geometry": { "type": "Point", "coordinates": [ 120.662512175817923, 30.508748978903512 ] } },
{ "type": "Feature", "properties": { "OBJECTID_1": 31, "OBJECTID": 31, "NAME": "斜桥镇", "CITY": "嘉兴市", "COUNTY": "海宁市", "Shape_Leng": 0.56318779913000006, "Shape_Area": 0.0060624608481100002, "InPoly_FID": 30, "SimPgnFlag": 1, "MaxSimpTol": 0.00053959322764499996, "MinSimpTol": 0.00053959322764499996, "Area": 1.32902 }, "geometry": { "type": "Point", "coordinates": [ 120.604003625483614, 30.49137710188921 ] } },
{ "type": "Feature", "properties": { "OBJECTID_1": 32, "OBJECTID": 32, "NAME": "硖石街道", "CITY": "嘉兴市", "COUNTY": "海宁市", "Shape_Leng": 0.35843968968700002, "Shape_Area": 0.0032915348532699998, "InPoly_FID": 31, "SimPgnFlag": 1, "MaxSimpTol": 0.00053959322764499996, "MinSimpTol": 0.00053959322764499996, "Area": 0.214571 }, "geometry": { "type": "Point", "coordinates": [ 120.721008743493869, 30.50756266182697 ] } },
{ "type": "Feature", "properties": { "OBJECTID_1": 33, "OBJECTID": 33, "NAME": "海昌街道", "CITY": "嘉兴市", "COUNTY": "海宁市", "Shape_Leng": 0.547577545547, "Shape_Area": 0.0050559401537499998, "InPoly_FID": 32, "SimPgnFlag": 1, "MaxSimpTol": 0.00053959322764499996, "MinSimpTol": 0.00053959322764499996, "Area": 0.0 }, "geometry": { "type": "Point", "coordinates": [ 120.693143227602164, 30.554345831272759 ] } },
{ "type": "Feature", "properties": { "OBJECTID_1": 34, "OBJECTID": 34, "NAME": "屠甸镇", "CITY": "嘉兴市", "COUNTY": "桐乡市", "Shape_Leng": 0.40535996121599999, "Shape_Area": 0.0038816022428300001, "InPoly_FID": 33, "SimPgnFlag": 1, "MaxSimpTol": 0.00053959322764499996, "MinSimpTol": 0.00053959322764499996, "Area": 0.0029789 }, "geometry": { "type": "Point", "coordinates": [ 120.615934368098891, 30.559554781250117 ] } },
{ "type": "Feature", "properties": { "OBJECTID_1": 35, "OBJECTID": 35, "NAME": "百步镇", "CITY": "嘉兴市", "COUNTY": "海盐县", "Shape_Leng": 0.489525535249, "Shape_Area": 0.0055632881233199996, "InPoly_FID": 34, "SimPgnFlag": 1, "MaxSimpTol": 0.00053959322764499996, "MinSimpTol": 0.00053959322764499996, "Area": 0.0 }, "geometry": { "type": "Point", "coordinates": [ 120.766579346310039, 30.566942323412718 ] } },
{ "type": "Feature", "properties": { "OBJECTID_1": 36, "OBJECTID": 36, "NAME": "高桥街道", "CITY": "嘉兴市", "COUNTY": "桐乡市", "Shape_Leng": 0.46438971594299999, "Shape_Area": 0.00513544196408, "InPoly_FID": 35, "SimPgnFlag": 1, "MaxSimpTol": 0.00053959322764499996, "MinSimpTol": 0.00053959322764499996, "Area": 0.00252 }, "geometry": { "type": "Point", "coordinates": [ 120.538982213058816, 30.529103447874007 ] } },
{ "type": "Feature", "properties": { "OBJECTID_1": 37, "OBJECTID": 37, "NAME": "大云镇", "CITY": "嘉兴市", "COUNTY": "嘉善县", "Shape_Leng": 0.31003508315799999, "Shape_Area": 0.0027422932113300002, "InPoly_FID": 36, "SimPgnFlag": 1, "MaxSimpTol": 0.00053959322764499996, "MinSimpTol": 0.00053959322764499996, "Area": 0.0 }, "geometry": { "type": "Point", "coordinates": [ 120.949600502293478, 30.795985995544378 ] } },
{ "type": "Feature", "properties": { "OBJECTID_1": 38, "OBJECTID": 272, "NAME": "河山镇", "CITY": "嘉兴市", "COUNTY": "桐乡市", "Shape_Leng": 0.45055047274600002, "Shape_Area": 0.0036801227642399999, "InPoly_FID": 37, "SimPgnFlag": 1, "MaxSimpTol": 0.00053959322764499996, "MinSimpTol": 0.00053959322764499996, "Area": 0.0 }, "geometry": { "type": "Point", "coordinates": [ 120.376046566678255, 30.638690881005573 ] } },
{ "type": "Feature", "properties": { "OBJECTID_1": 39, "OBJECTID": 273, "NAME": "梧桐街道", "CITY": "嘉兴市", "COUNTY": "桐乡市", "Shape_Leng": 0.55231489629899999, "Shape_Area": 0.0087033387908800001, "InPoly_FID": 38, "SimPgnFlag": 1, "MaxSimpTol": 0.00053959322764499996, "MinSimpTol": 0.00053959322764499996, "Area": 0.0 }, "geometry": { "type": "Point", "coordinates": [ 120.548338018954283, 30.631169125669686 ] } },
{ "type": "Feature", "properties": { "OBJECTID_1": 40, "OBJECTID": 274, "NAME": "石门镇", "CITY": "嘉兴市", "COUNTY": "桐乡市", "Shape_Leng": 0.66213561753500005, "Shape_Area": 0.0059445906781900003, "InPoly_FID": 39, "SimPgnFlag": 1, "MaxSimpTol": 0.00053959322764499996, "MinSimpTol": 0.00053959322764499996, "Area": 0.0 }, "geometry": { "type": "Point", "coordinates": [ 120.428108851840406, 30.629839908726321 ] } },
{ "type": "Feature", "properties": { "OBJECTID_1": 41, "OBJECTID": 275, "NAME": "凤鸣街道", "CITY": "嘉兴市", "COUNTY": "桐乡市", "Shape_Leng": 0.52484765698900004, "Shape_Area": 0.0056541829123300004, "InPoly_FID": 40, "SimPgnFlag": 1, "MaxSimpTol": 0.00053959322764499996, "MinSimpTol": 0.00053959322764499996, "Area": 0.0 }, "geometry": { "type": "Point", "coordinates": [ 120.497859795090292, 30.585062764214449 ] } },
{ "type": "Feature", "properties": { "OBJECTID_1": 42, "OBJECTID": 276, "NAME": "崇福镇", "CITY": "嘉兴市", "COUNTY": "桐乡市", "Shape_Leng": 0.64585216682000002, "Shape_Area": 0.0093984207435000005, "InPoly_FID": 41, "SimPgnFlag": 1, "MaxSimpTol": 0.00053959322764499996, "MinSimpTol": 0.00053959322764499996, "Area": 0.0 }, "geometry": { "type": "Point", "coordinates": [ 120.436171987645039, 30.531233661279924 ] } },
{ "type": "Feature", "properties": { "OBJECTID_1": 43, "OBJECTID": 277, "NAME": "大麻镇", "CITY": "嘉兴市", "COUNTY": "桐乡市", "Shape_Leng": 0.349639693034, "Shape_Area": 0.0030755725647899999, "InPoly_FID": 42, "SimPgnFlag": 1, "MaxSimpTol": 0.00053959322764499996, "MinSimpTol": 0.00053959322764499996, "Area": 0.443012 }, "geometry": { "type": "Point", "coordinates": [ 120.344120714149724, 30.507743473374521 ] } },
{ "type": "Feature", "properties": { "OBJECTID_1": 44, "OBJECTID": 278, "NAME": "洲泉镇", "CITY": "嘉兴市", "COUNTY": "桐乡市", "Shape_Leng": 0.57243571509900004, "Shape_Area": 0.0068940659472199999, "InPoly_FID": 43, "SimPgnFlag": 1, "MaxSimpTol": 0.00053959322764499996, "MinSimpTol": 0.00053959322764499996, "Area": 0.0 }, "geometry": { "type": "Point", "coordinates": [ 120.34106957687348, 30.574768695247801 ] } },
{ "type": "Feature", "properties": { "OBJECTID_1": 45, "OBJECTID": 279, "NAME": "许村镇", "CITY": "嘉兴市", "COUNTY": "海宁市", "Shape_Leng": 0.61037485112500001, "Shape_Area": 0.0085602427214100003, "InPoly_FID": 44, "SimPgnFlag": 1, "MaxSimpTol": 0.00053959322764499996, "MinSimpTol": 0.00053959322764499996, "Area": 0.816109 }, "geometry": { "type": "Point", "coordinates": [ 120.366706349253903, 30.432730513276262 ] } },
{ "type": "Feature", "properties": { "OBJECTID_1": 46, "OBJECTID": 1223, "NAME": "王店镇", "CITY": "嘉兴市", "COUNTY": "秀洲区", "Shape_Leng": 0.90173174573299997, "Shape_Area": 0.0109340434342, "InPoly_FID": 45, "SimPgnFlag": 1, "MaxSimpTol": 0.00053959322764499996, "MinSimpTol": 0.00053959322764499996, "Area": 0.0 }, "geometry": { "type": "Point", "coordinates": [ 120.69800113330291, 30.634960039549327 ] } },
{ "type": "Feature", "properties": { "OBJECTID_1": 47, "OBJECTID": 1224, "NAME": "大桥镇", "CITY": "嘉兴市", "COUNTY": "南湖区", "Shape_Leng": 0.67945085150100004, "Shape_Area": 0.0080602066991099994, "InPoly_FID": 46, "SimPgnFlag": 1, "MaxSimpTol": 0.00053959322764499996, "MinSimpTol": 0.00053959322764499996, "Area": 0.0 }, "geometry": { "type": "Point", "coordinates": [ 120.884603648357427, 30.749788478612047 ] } },
{ "type": "Feature", "properties": { "OBJECTID_1": 48, "OBJECTID": 1225, "NAME": "洪合镇", "CITY": "嘉兴市", "COUNTY": "秀洲区", "Shape_Leng": 0.53433919031099997, "Shape_Area": 0.0052696720073000004, "InPoly_FID": 47, "SimPgnFlag": 1, "MaxSimpTol": 0.00053959322764499996, "MinSimpTol": 0.00053959322764499996, "Area": 2.0561061 }, "geometry": { "type": "Point", "coordinates": [ 120.657488182389855, 30.678987752264693 ] } },
{ "type": "Feature", "properties": { "OBJECTID_1": 49, "OBJECTID": 1226, "NAME": "嘉北街道", "CITY": "嘉兴市", "COUNTY": "秀洲区", "Shape_Leng": 0.22319965633200001, "Shape_Area": 0.0012379972655299999, "InPoly_FID": 48, "SimPgnFlag": 1, "MaxSimpTol": 0.00053959322764499996, "MinSimpTol": 0.00053959322764499996, "Area": 0.0230048 }, "geometry": { "type": "Point", "coordinates": [ 120.72267100727683, 30.786079769645053 ] } },
{ "type": "Feature", "properties": { "OBJECTID_1": 50, "OBJECTID": 1227, "NAME": "建设街道", "CITY": "嘉兴市", "COUNTY": "南湖区", "Shape_Leng": 0.063527087971399998, "Shape_Area": 0.00024426323030799998, "InPoly_FID": 49, "SimPgnFlag": 1, "MaxSimpTol": 0.00053959322764499996, "MinSimpTol": 0.00053959322764499996, "Area": 0.0 }, "geometry": { "type": "Point", "coordinates": [ 120.746028373482602, 30.76365078359467 ] } },
{ "type": "Feature", "properties": { "OBJECTID_1": 51, "OBJECTID": 1228, "NAME": "解放街道", "CITY": "嘉兴市", "COUNTY": "南湖区", "Shape_Leng": 0.096003039898300002, "Shape_Area": 0.00035474549970499999, "InPoly_FID": 50, "SimPgnFlag": 1, "MaxSimpTol": 0.00053959322764499996, "MinSimpTol": 0.00053959322764499996, "Area": 0.0 }, "geometry": { "type": "Point", "coordinates": [ 120.761011352706063, 30.777061290907085 ] } },
{ "type": "Feature", "properties": { "OBJECTID_1": 52, "OBJECTID": 1229, "NAME": "南湖街道", "CITY": "嘉兴市", "COUNTY": "南湖区", "Shape_Leng": 0.13113031368, "Shape_Area": 0.00095242719964700004, "InPoly_FID": 51, "SimPgnFlag": 1, "MaxSimpTol": 0.00053959322764499996, "MinSimpTol": 0.00053959322764499996, "Area": 0.0 }, "geometry": { "type": "Point", "coordinates": [ 120.762056802581682, 30.753746254092214 ] } },
{ "type": "Feature", "properties": { "OBJECTID_1": 53, "OBJECTID": 1230, "NAME": "七星街道", "CITY": "嘉兴市", "COUNTY": "南湖区", "Shape_Leng": 0.25965589778699999, "Shape_Area": 0.0028611570121500002, "InPoly_FID": 52, "SimPgnFlag": 1, "MaxSimpTol": 0.00053959322764499996, "MinSimpTol": 0.00053959322764499996, "Area": 0.6509732 }, "geometry": { "type": "Point", "coordinates": [ 120.83080021632766, 30.809231007724357 ] } },
{ "type": "Feature", "properties": { "OBJECTID_1": 54, "OBJECTID": 1231, "NAME": "塘汇街道", "CITY": "嘉兴市", "COUNTY": "秀洲区", "Shape_Leng": 0.209461349883, "Shape_Area": 0.0012872468576, "InPoly_FID": 53, "SimPgnFlag": 1, "MaxSimpTol": 0.00053959322764499996, "MinSimpTol": 0.00053959322764499996, "Area": 0.049742 }, "geometry": { "type": "Point", "coordinates": [ 120.773294361150022, 30.795197191381785 ] } },
{ "type": "Feature", "properties": { "OBJECTID_1": 55, "OBJECTID": 1232, "NAME": "王江泾镇", "CITY": "嘉兴市", "COUNTY": "秀洲区", "Shape_Leng": 0.85665869434200004, "Shape_Area": 0.011277442843700001, "InPoly_FID": 54, "SimPgnFlag": 1, "MaxSimpTol": 0.00053959322764499996, "MinSimpTol": 0.00053959322764499996, "Area": 2.78993 }, "geometry": { "type": "Point", "coordinates": [ 120.710643943330766, 30.881962992441977 ] } },
{ "type": "Feature", "properties": { "OBJECTID_1": 56, "OBJECTID": 1233, "NAME": "新嘉街道", "CITY": "嘉兴市", "COUNTY": "南湖区", "Shape_Leng": 0.097801983602000001, "Shape_Area": 0.00045359709739199998, "InPoly_FID": 55, "SimPgnFlag": 1, "MaxSimpTol": 0.00053959322764499996, "MinSimpTol": 0.00053959322764499996, "Area": 0.0 }, "geometry": { "type": "Point", "coordinates": [ 120.738663650588336, 30.777054936057887 ] } },
{ "type": "Feature", "properties": { "OBJECTID_1": 57, "OBJECTID": 1234, "NAME": "新兴街道", "CITY": "嘉兴市", "COUNTY": "南湖区", "Shape_Leng": 0.085728005961200004, "Shape_Area": 0.00041661644923899997, "InPoly_FID": 56, "SimPgnFlag": 1, "MaxSimpTol": 0.00053959322764499996, "MinSimpTol": 0.00053959322764499996, "Area": 0.0 }, "geometry": { "type": "Point", "coordinates": [ 120.730475376953336, 30.752604658897745 ] } },
{ "type": "Feature", "properties": { "OBJECTID_1": 58, "OBJECTID": 1235, "NAME": "城南街道", "CITY": "嘉兴市", "COUNTY": "南湖区", "Shape_Leng": 0.38619154523299998, "Shape_Area": 0.0038723191510500001, "InPoly_FID": 57, "SimPgnFlag": 1, "MaxSimpTol": 0.00053959322764499996, "MinSimpTol": 0.00053959322764499996, "Area": 0.0188606 }, "geometry": { "type": "Point", "coordinates": [ 120.702792001808973, 30.724365721431646 ] } },
{ "type": "Feature", "properties": { "OBJECTID_1": 59, "OBJECTID": 1236, "NAME": "余新镇", "CITY": "嘉兴市", "COUNTY": "南湖区", "Shape_Leng": 0.58154453831200004, "Shape_Area": 0.0056164805023699998, "InPoly_FID": 58, "SimPgnFlag": 1, "MaxSimpTol": 0.00053959322764499996, "MinSimpTol": 0.00053959322764499996, "Area": 1.3474886 }, "geometry": { "type": "Point", "coordinates": [ 120.801438668564231, 30.673233686402416 ] } },
{ "type": "Feature", "properties": { "OBJECTID_1": 60, "OBJECTID": 1237, "NAME": "东栅街道", "CITY": "嘉兴市", "COUNTY": "南湖区", "Shape_Leng": 0.279783463432, "Shape_Area": 0.0024528610197000001, "InPoly_FID": 59, "SimPgnFlag": 1, "MaxSimpTol": 0.00053959322764499996, "MinSimpTol": 0.00053959322764499996, "Area": 0.0402344 }, "geometry": { "type": "Point", "coordinates": [ 120.771107557141974, 30.73248934025009 ] } },
{ "type": "Feature", "properties": { "OBJECTID_1": 61, "OBJECTID": 1238, "NAME": "油车港镇", "CITY": "嘉兴市", "COUNTY": "秀洲区", "Shape_Leng": 0.61495346018700003, "Shape_Area": 0.0060026521392199999, "InPoly_FID": 60, "SimPgnFlag": 1, "MaxSimpTol": 0.00053959322764499996, "MinSimpTol": 0.00053959322764499996, "Area": 0.7912633 }, "geometry": { "type": "Point", "coordinates": [ 120.764445300160077, 30.850289645087891 ] } },
{ "type": "Feature", "properties": { "OBJECTID_1": 62, "OBJECTID": 1282, "NAME": "黄湾镇", "CITY": "嘉兴市", "COUNTY": "海宁市", "Shape_Leng": 0.57642437762999998, "Shape_Area": 0.015239052474800001, "InPoly_FID": 61, "SimPgnFlag": 1, "MaxSimpTol": 0.00053959322764499996, "MinSimpTol": 0.00053959322764499996, "Area": 0.0 }, "geometry": { "type": "Point", "coordinates": [ 120.774630791559005, 30.329761543217014 ] } },
{ "type": "Feature", "properties": { "OBJECTID_1": 63, "OBJECTID": 1283, "NAME": "澉浦镇", "CITY": "嘉兴市", "COUNTY": "海盐县", "Shape_Leng": 0.793037994591, "Shape_Area": 0.016017937968800001, "InPoly_FID": 62, "SimPgnFlag": 1, "MaxSimpTol": 0.00053959322764499996, "MinSimpTol": 0.00053959322764499996, "Area": 0.0 }, "geometry": { "type": "Point", "coordinates": [ 120.888046689620367, 30.348688620807462 ] } },
{ "type": "Feature", "properties": { "OBJECTID_1": 64, "OBJECTID": 1284, "NAME": "凤桥镇", "CITY": "嘉兴市", "COUNTY": "南湖区", "Shape_Leng": 0.62337834435799999, "Shape_Area": 0.0075593825933500001, "InPoly_FID": 63, "SimPgnFlag": 1, "MaxSimpTol": 0.00053959322764499996, "MinSimpTol": 0.00053959322764499996, "Area": 0.97421 }, "geometry": { "type": "Point", "coordinates": [ 120.871791969791218, 30.648381407992716 ] } },
{ "type": "Feature", "properties": { "OBJECTID_1": 65, "OBJECTID": 1285, "NAME": "新塍镇", "CITY": "嘉兴市", "COUNTY": "秀洲区", "Shape_Leng": 0.64393097183100001, "Shape_Area": 0.012532294267500001, "InPoly_FID": 64, "SimPgnFlag": 1, "MaxSimpTol": 0.00053959322764499996, "MinSimpTol": 0.00053959322764499996, "Area": 0.852643 }, "geometry": { "type": "Point", "coordinates": [ 120.603251739223367, 30.790210831465689 ] } },
{ "type": "Feature", "properties": { "OBJECTID_1": 66, "OBJECTID": 1328, "NAME": "长水街道", "CITY": "嘉兴市", "COUNTY": "南湖区", "Shape_Leng": 0.36601570116799997, "Shape_Area": 0.0029297132993199998, "InPoly_FID": 65, "SimPgnFlag": 1, "MaxSimpTol": 0.00053959322764499996, "MinSimpTol": 0.00053959322764499996, "Area": 0.000621 }, "geometry": { "type": "Point", "coordinates": [ 120.772851240184679, 30.712409953305354 ] } },
{ "type": "Feature", "properties": { "OBJECTID_1": 67, "OBJECTID": 1329, "NAME": "高照街道", "CITY": "嘉兴市", "COUNTY": "秀洲区", "Shape_Leng": 0.199468748513, "Shape_Area": 0.00191646919817, "InPoly_FID": 66, "SimPgnFlag": 1, "MaxSimpTol": 0.00053959322764499996, "MinSimpTol": 0.00053959322764499996, "Area": 0.1107192 }, "geometry": { "type": "Point", "coordinates": [ 120.660003960920577, 30.757942284393373 ] } },
{ "type": "Feature", "properties": { "OBJECTID_1": 68, "OBJECTID": 1330, "NAME": "新城街道", "CITY": "嘉兴市", "COUNTY": "秀洲区", "Shape_Leng": 0.17823770322499999, "Shape_Area": 0.00145832789971, "InPoly_FID": 67, "SimPgnFlag": 1, "MaxSimpTol": 0.00053959322764499996, "MinSimpTol": 0.00053959322764499996, "Area": 0.2150028 }, "geometry": { "type": "Point", "coordinates": [ 120.68735731372432, 30.77701424007132 ] } },
{ "type": "Feature", "properties": { "OBJECTID_1": 69, "OBJECTID": 1377, "NAME": "乌镇镇", "CITY": "嘉兴市", "COUNTY": "桐乡市", "Shape_Leng": 0.67467043170899998, "Shape_Area": 0.0105292727702, "InPoly_FID": 68, "SimPgnFlag": 1, "MaxSimpTol": 0.00053959322764499996, "MinSimpTol": 0.00053959322764499996, "Area": 0.0 }, "geometry": { "type": "Point", "coordinates": [ 120.506181875940086, 30.714533078914567 ] } },
{ "type": "Feature", "properties": { "OBJECTID_1": 70, "OBJECTID": 1378, "NAME": "濮院镇", "CITY": "嘉兴市", "COUNTY": "桐乡市", "Shape_Leng": 0.56515544136600004, "Shape_Area": 0.0056941773729200004, "InPoly_FID": 69, "SimPgnFlag": 1, "MaxSimpTol": 0.00053959322764499996, "MinSimpTol": 0.00053959322764499996, "Area": 0.0 }, "geometry": { "type": "Point", "coordinates": [ 120.589429201161934, 30.689524663931621 ] } },
{ "type": "Feature", "properties": { "OBJECTID_1": 71, "OBJECTID": 1379, "NAME": "新仓镇", "CITY": "嘉兴市", "COUNTY": "平湖市", "Shape_Leng": 0.56205389796899996, "Shape_Area": 0.00600092516856, "InPoly_FID": 70, "SimPgnFlag": 1, "MaxSimpTol": 0.00053959322764499996, "MinSimpTol": 0.00053959322764499996, "Area": 2.6753495 }, "geometry": { "type": "Point", "coordinates": [ 121.192409626945988, 30.73604419651091 ] } },
{ "type": "Feature", "properties": { "OBJECTID_1": 72, "OBJECTID": 1380, "NAME": "独山港镇", "CITY": "嘉兴市", "COUNTY": "平湖市", "Shape_Leng": 0.78027399966400002, "Shape_Area": 0.0089350338545000005, "InPoly_FID": 71, "SimPgnFlag": 1, "MaxSimpTol": 0.00053959322764499996, "MinSimpTol": 0.00053959322764499996, "Area": 0.0 }, "geometry": { "type": "Point", "coordinates": [ 121.181931785754387, 30.688025339431903 ] } }
]
}
